{"asOf":"2026","source":"OpenStreetMap via Overpass (ODbL), India-only — utility-scale solar parks (≥5 MW) with a mapped capacity. The largest parks are captured, but this is not the full ~140 GW fleet: rooftop and unmapped plants are excluded.","count":335,"totalGw":10.9,"parks":[{"name":"Kurnool Ultra Mega Solar Park","mw":1000,"lat":15.672,"lng":78.259,"operator":null},{"name":"Khavda Renewable Energy Park","mw":1000,"lat":24.113,"lng":69.366,"operator":"Adani Green"},{"name":"NTPC Khavda","mw":397.7,"lat":24.139,"lng":69.504,"operator":"NTPC"},{"name":"Kadapa Ultra Mega Solar Park","mw":250,"lat":14.915,"lng":78.276,"operator":null},{"name":"Chhirbel","mw":190,"lat":22.188,"lng":76.218,"operator":null},{"name":"Varavoo Kaval","mw":170,"lat":14.375,"lng":76.582,"operator":null},{"name":"Palaswade","mw":155,"lat":17.556,"lng":74.825,"operator":null},{"name":"Welspun Solar MP project Bhagwanpura","mw":151,"lat":24.69,"lng":75.13,"operator":null},{"name":"Chhatargarh Solar PV Project","mw":150,"lat":28.633,"lng":73.174,"operator":"NTPC"},{"name":"Bilhaur solar farm","mw":140,"lat":26.755,"lng":80.067,"operator":"National Thermal Power Corporation Limited"},{"name":"Guttigoli","mw":135,"lat":16.126,"lng":75.27,"operator":null},{"name":"Bap SECI (JNNSM)","mw":120,"lat":27.493,"lng":72.4,"operator":"Eden Renewables"},{"name":"Kakarani","mw":115,"lat":17.279,"lng":79.189,"operator":null},{"name":"Dhirubhai Ambani Solar Park","mw":100,"lat":26.787,"lng":72.01,"operator":null},{"name":"Kaudgaon Solar Plant","mw":100,"lat":18.176,"lng":75.952,"operator":"MahaGenco"},{"name":"Veltoor Renew","mw":100,"lat":16.527,"lng":77.902,"operator":null},{"name":"Avaada Solar power plant","mw":100,"lat":18.115,"lng":75.696,"operator":"Avaada"},{"name":"Chhirbel","mw":90,"lat":22.218,"lng":76.218,"operator":null},{"name":"GENSU Solar Power Plant","mw":87,"lat":21.342,"lng":73,"operator":"Torrent Power"},{"name":null,"mw":85,"lat":26.724,"lng":80.05,"operator":"Uttar Pradesh New and Renewable Energy Development Agency"},{"name":"Dadar Kala","mw":75,"lat":25.101,"lng":82.36,"operator":"Engie Solar"},{"name":"Dhuvaran Phase 1","mw":75,"lat":22.252,"lng":72.739,"operator":null},{"name":"Kheda solar farm","mw":75,"lat":28.105,"lng":79.058,"operator":null},{"name":"Dhuvaran Phase 2","mw":75,"lat":22.247,"lng":72.738,"operator":null},{"name":"Narikudi","mw":60,"lat":9.57,"lng":78.313,"operator":null},{"name":null,"mw":60,"lat":27.21,"lng":74.253,"operator":null},{"name":"Project Jamkhandi","mw":56,"lat":16.555,"lng":75.231,"operator":"Rays Power Infra"},{"name":"Project Jalaun","mw":55,"lat":26.097,"lng":79.605,"operator":"Rays Power Infra"},{"name":"Godawari Green Energy Limited CSP","mw":50,"lat":27.602,"lng":72.224,"operator":"Godawari Green Energy Limited"},{"name":"Mervadar","mw":50,"lat":21.74,"lng":70.101,"operator":null},{"name":"Seegipalle","mw":50,"lat":13.936,"lng":77.491,"operator":null},{"name":"Tiruchuli","mw":50,"lat":9.522,"lng":78.227,"operator":null},{"name":"Punganur","mw":50,"lat":13.323,"lng":78.673,"operator":null},{"name":"Palavalli","mw":50,"lat":14.14,"lng":77.315,"operator":null},{"name":"Nirmal Acme","mw":50,"lat":19.134,"lng":78.245,"operator":null},{"name":"Virannapalle","mw":50,"lat":15.023,"lng":77.842,"operator":null},{"name":"Kallurani Aadhavan","mw":50,"lat":9.446,"lng":78.15,"operator":null},{"name":"Bahadurgarh","mw":50,"lat":30.156,"lng":74.69,"operator":null},{"name":"Mograle","mw":50,"lat":17.871,"lng":74.544,"operator":null},{"name":"Chhirbel","mw":50,"lat":21.849,"lng":76.114,"operator":null},{"name":"Wagdari","mw":50,"lat":17.609,"lng":76.377,"operator":null},{"name":"Kamareddy Mytrah","mw":50,"lat":18.362,"lng":78.212,"operator":null},{"name":"Kakkireni Adani","mw":50,"lat":17.276,"lng":79.205,"operator":null},{"name":"Wanaparthy Mytrah","mw":50,"lat":16.442,"lng":78.002,"operator":null},{"name":"Sadlapur","mw":50,"lat":17.795,"lng":77.017,"operator":null},{"name":"Ponnusangampatti","mw":50,"lat":11.066,"lng":78.493,"operator":null},{"name":null,"mw":50,"lat":9.325,"lng":77.601,"operator":null},{"name":"Sattur","mw":50,"lat":9.412,"lng":78.004,"operator":null},{"name":"Badanpur","mw":50,"lat":25.365,"lng":78.308,"operator":null},{"name":"Badanpur","mw":50,"lat":25.411,"lng":78.48,"operator":null},{"name":null,"mw":50,"lat":25.203,"lng":78.437,"operator":null},{"name":"Floating Solar Power","mw":50,"lat":9.014,"lng":76.616,"operator":"Apollo Green Energy"},{"name":"Kayanathar","mw":49,"lat":8.912,"lng":77.745,"operator":null},{"name":"Kurmapally Gk","mw":48,"lat":16.772,"lng":78.868,"operator":null},{"name":"Kamlapur","mw":47,"lat":23.05,"lng":71.865,"operator":"Ujjawala Power Private Limited"},{"name":"TPDDL-Shivpuri","mw":45,"lat":25.512,"lng":77.662,"operator":null},{"name":"Chidra","mw":44,"lat":22.066,"lng":72.621,"operator":null},{"name":"Waddekothapally","mw":42,"lat":17.505,"lng":79.56,"operator":null},{"name":"Bitta Solar Power Plant","mw":40,"lat":23.256,"lng":69.026,"operator":"Adani Power"},{"name":"Kachhaliya","mw":40,"lat":23.885,"lng":75.897,"operator":null},{"name":"Kalipi","mw":40,"lat":13.982,"lng":77.48,"operator":null},{"name":"Dhirubhai Ambani Solar Park","mw":40,"lat":26.804,"lng":72.008,"operator":null},{"name":"Lingadalli","mw":40,"lat":17.509,"lng":76.993,"operator":null},{"name":null,"mw":40,"lat":20.528,"lng":83.47,"operator":null},{"name":null,"mw":40,"lat":23.505,"lng":73.44,"operator":null},{"name":null,"mw":40,"lat":23.512,"lng":73.438,"operator":null},{"name":null,"mw":40,"lat":23.516,"lng":73.442,"operator":null},{"name":"Moolippatti","mw":40,"lat":9.644,"lng":77.85,"operator":null},{"name":"Chagi","mw":39,"lat":15.524,"lng":77.266,"operator":null},{"name":"Ghattu","mw":39,"lat":16.132,"lng":77.557,"operator":null},{"name":"Gabat","mw":38,"lat":23.224,"lng":73.378,"operator":null},{"name":"Bavadi Barsingha","mw":36,"lat":27.439,"lng":72.324,"operator":null},{"name":"Chengam","mw":36,"lat":12.345,"lng":78.948,"operator":null},{"name":"That","mw":35,"lat":26.835,"lng":71.814,"operator":null},{"name":"Goyalkhedi","mw":32,"lat":23.749,"lng":75.64,"operator":null},{"name":"Rojhani- Agar Malwa","mw":30.5,"lat":23.703,"lng":75.924,"operator":null},{"name":"Adhoi (Pasakayara)","mw":30,"lat":23.379,"lng":70.558,"operator":null},{"name":"Fatepur MySolar","mw":30,"lat":23.419,"lng":71.62,"operator":"Dreisatz MySolar24"},{"name":"Amarpur","mw":30,"lat":24.77,"lng":78.444,"operator":"Solar Power Plant-Jackson Group-30 MW"},{"name":"Suryalabh","mw":30,"lat":27.443,"lng":72.48,"operator":null},{"name":"Teona Pujarian","mw":30,"lat":29.904,"lng":75.078,"operator":null},{"name":"Kambalahalli A","mw":30,"lat":14.204,"lng":77.38,"operator":null},{"name":"Kambalahalli B","mw":30,"lat":14.194,"lng":77.347,"operator":null},{"name":"Project Haridwar","mw":30,"lat":29.878,"lng":77.737,"operator":"Rays Power Infra"},{"name":"Lomada","mw":30,"lat":14.588,"lng":78.215,"operator":null},{"name":"Parashuramadevara Kote","mw":30,"lat":14.041,"lng":76.906,"operator":null},{"name":"Eluvanampatty","mw":30,"lat":10.133,"lng":77.692,"operator":null},{"name":"Bareta","mw":30,"lat":29.875,"lng":75.669,"operator":null},{"name":"Mirpur Kalan","mw":30,"lat":29.732,"lng":75.308,"operator":null},{"name":"Harij","mw":30,"lat":23.715,"lng":71.875,"operator":null},{"name":"Mithapur Solar Power Plant","mw":25,"lat":22.409,"lng":68.992,"operator":null},{"name":"Gobindpura","mw":25,"lat":29.872,"lng":75.628,"operator":null},{"name":"Suntholi","mw":25,"lat":24.721,"lng":75.038,"operator":null},{"name":"Padliya","mw":25,"lat":24.788,"lng":75.088,"operator":null},{"name":"Surel Visual Solar","mw":25,"lat":23.474,"lng":71.583,"operator":"Visual Percept Solar Projects"},{"name":"Savda","mw":25,"lat":23.259,"lng":71.78,"operator":null},{"name":"Solar Park Rani/Pali","mw":25,"lat":25.338,"lng":73.22,"operator":null},{"name":null,"mw":25,"lat":27.395,"lng":72.229,"operator":null},{"name":"Durg","mw":25,"lat":21.522,"lng":81.273,"operator":null},{"name":"Mankhera","mw":25,"lat":29.59,"lng":75.241,"operator":null},{"name":"Saspali","mw":25,"lat":29.821,"lng":75.598,"operator":null},{"name":"Usman Khera","mw":25,"lat":30.036,"lng":73.905,"operator":null},{"name":"Daulat Pura","mw":25,"lat":30.087,"lng":74.04,"operator":null},{"name":"Banwala Anu","mw":25,"lat":30.013,"lng":74.601,"operator":null},{"name":"Bahadur Khera","mw":25,"lat":30.116,"lng":74.344,"operator":null},{"name":"Bolangir","mw":25,"lat":20.553,"lng":83.372,"operator":null},{"name":"Khaira Khurd","mw":25,"lat":29.659,"lng":75.264,"operator":null},{"name":"Kadodiya A","mw":25,"lat":23.538,"lng":76.125,"operator":null},{"name":"Dondlapalle","mw":25,"lat":16.888,"lng":78.084,"operator":null},{"name":"Simhadri floating solar farm","mw":25,"lat":17.59,"lng":83.115,"operator":null},{"name":"Manchitiya Jakson","mw":24,"lat":27.48,"lng":72.312,"operator":null},{"name":"Killanwali","mw":24,"lat":29.949,"lng":74.676,"operator":null},{"name":"Project Haridwar 2","mw":24,"lat":29.874,"lng":77.757,"operator":"Rays Power Infra"},{"name":"Saidapur","mw":24,"lat":17.543,"lng":77.966,"operator":null},{"name":"Vikarabad","mw":23,"lat":17.344,"lng":77.979,"operator":null},{"name":null,"mw":23,"lat":26.451,"lng":71.528,"operator":null},{"name":null,"mw":23,"lat":26.62,"lng":71.455,"operator":null},{"name":"Arvapally Mytrah","mw":23,"lat":17.354,"lng":79.588,"operator":null},{"name":null,"mw":23,"lat":21.511,"lng":71.836,"operator":null},{"name":"Project Medak","mw":22,"lat":18.144,"lng":78.651,"operator":"Rays Power Infra"},{"name":"Project Mahbubnagar","mw":21.5,"lat":16.712,"lng":78.474,"operator":"Rays Power Infra"},{"name":"Lakhmirwala","mw":21,"lat":29.851,"lng":75.402,"operator":null},{"name":"Muradwala Dal Singh","mw":21,"lat":30.254,"lng":74.253,"operator":null},{"name":"25 MWP Solar Power Plant , Tarlupadu","mw":21,"lat":15.644,"lng":79.26,"operator":null},{"name":"Mouje Karmariya","mw":20,"lat":23.349,"lng":70.388,"operator":"Solar Semiconductor Power Company"},{"name":"Ugaras","mw":20,"lat":26.972,"lng":72.126,"operator":null},{"name":"Dahisar","mw":20,"lat":23.926,"lng":71.522,"operator":null},{"name":"Mangalwedha","mw":20,"lat":17.538,"lng":75.432,"operator":null},{"name":"Moserbear","mw":20,"lat":21.603,"lng":69.848,"operator":null},{"name":"Hiraco","mw":20,"lat":21.598,"lng":69.842,"operator":null},{"name":"Baroo A","mw":20,"lat":27.36,"lng":71.962,"operator":null},{"name":null,"mw":20,"lat":27.349,"lng":71.994,"operator":null},{"name":"Sanwreej","mw":20,"lat":26.981,"lng":72.259,"operator":null},{"name":"Mahabubnagar Solar Park","mw":20,"lat":16.627,"lng":77.665,"operator":null},{"name":"Vankal Solar Park","mw":20,"lat":23.605,"lng":93.116,"operator":"Power & Electricity Department"},{"name":"Chikkodi","mw":20,"lat":16.448,"lng":74.551,"operator":null},{"name":"Puchakayala","mw":20,"lat":15.362,"lng":77.491,"operator":null},{"name":"Holalkere","mw":20,"lat":13.99,"lng":76.372,"operator":null},{"name":"Turuvekere","mw":20,"lat":13.269,"lng":76.742,"operator":null},{"name":"Boram Palli","mw":20,"lat":14.577,"lng":77.186,"operator":null},{"name":"Horti","mw":20,"lat":17.905,"lng":76.324,"operator":null},{"name":"Nandipet SD","mw":20,"lat":18.895,"lng":78.201,"operator":null},{"name":"Renew Solar","mw":20,"lat":16.598,"lng":77.019,"operator":null},{"name":"Renew Solar","mw":20,"lat":16.606,"lng":77.02,"operator":null},{"name":"Humnabad","mw":20,"lat":17.733,"lng":77.211,"operator":null},{"name":"Aditya Birla","mw":20,"lat":16.018,"lng":75.126,"operator":null},{"name":"Shiggaon","mw":20,"lat":15.028,"lng":75.194,"operator":null},{"name":"Mayakonda","mw":20,"lat":14.322,"lng":76.112,"operator":null},{"name":"Musri","mw":20,"lat":11.08,"lng":78.506,"operator":null},{"name":"Agaram A","mw":20,"lat":10.456,"lng":77.925,"operator":null},{"name":"Supa","mw":20,"lat":25.353,"lng":79.77,"operator":null},{"name":"Chahitara","mw":20,"lat":25.56,"lng":80.332,"operator":null},{"name":"Manamunda","mw":20,"lat":20.784,"lng":83.891,"operator":null},{"name":"Kanheri Bhatyari","mw":20,"lat":22.335,"lng":74.707,"operator":null},{"name":"Somaram A","mw":20,"lat":17.718,"lng":78.995,"operator":null},{"name":"Pedda Gopalaram","mw":20,"lat":17.662,"lng":77.865,"operator":null},{"name":"T.N.Pura","mw":20,"lat":12.054,"lng":76.961,"operator":null},{"name":"Kalkere","mw":20,"lat":12.392,"lng":76.176,"operator":null},{"name":"Kanajanahalli","mw":20,"lat":14.126,"lng":76.811,"operator":null},{"name":"Srinivasapura","mw":20,"lat":13.369,"lng":78.366,"operator":null},{"name":"Yadgiri","mw":20,"lat":16.647,"lng":77.209,"operator":null},{"name":"Indi Essel","mw":20,"lat":17.025,"lng":75.828,"operator":null},{"name":null,"mw":20,"lat":24.141,"lng":71.281,"operator":null},{"name":"Muddebihal","mw":20,"lat":16.255,"lng":76.161,"operator":null},{"name":"Rohukurupalli","mw":20,"lat":14.112,"lng":78.787,"operator":null},{"name":null,"mw":20,"lat":17.802,"lng":77.152,"operator":null},{"name":"Sikh Wala","mw":19,"lat":30.021,"lng":74.546,"operator":null},{"name":"Melamudimannar","mw":18,"lat":9.416,"lng":78.247,"operator":null},{"name":"Project Haridwar 4","mw":18,"lat":29.868,"lng":77.736,"operator":"Rays Power Infra"},{"name":"Somaram C","mw":18,"lat":17.713,"lng":79.019,"operator":null},{"name":"BEL Solar Power plant","mw":16.3,"lat":17.514,"lng":78.141,"operator":null},{"name":null,"mw":15.2,"lat":23.913,"lng":71.942,"operator":"Precious (Moser Baer)"},{"name":"Bap - GIS 1-2","mw":15,"lat":27.384,"lng":72.318,"operator":null},{"name":"Jafrabad","mw":15,"lat":20.878,"lng":71.28,"operator":"Sunkon Energy"},{"name":"Gowriganipalli","mw":15,"lat":13.727,"lng":77.562,"operator":null},{"name":"Vindhyanagar","mw":15,"lat":24.119,"lng":82.642,"operator":null},{"name":"Tahliwala Jattan","mw":15,"lat":30.348,"lng":74.19,"operator":null},{"name":"Raibagh","mw":15,"lat":16.373,"lng":74.774,"operator":null},{"name":"Renjal","mw":15,"lat":18.79,"lng":77.917,"operator":null},{"name":"Nandipet Acme","mw":15,"lat":18.863,"lng":78.182,"operator":null},{"name":"Bandarupalli A","mw":15,"lat":18.028,"lng":78.788,"operator":null},{"name":"Lingampet Acme","mw":15,"lat":18.281,"lng":78.106,"operator":null},{"name":"Ramannapet","mw":15,"lat":17.286,"lng":79.147,"operator":null},{"name":"Achampet Solarpack","mw":15,"lat":16.388,"lng":78.676,"operator":null},{"name":"Achampet Suzlon","mw":15,"lat":16.407,"lng":78.7,"operator":null},{"name":"Hunagund","mw":15,"lat":16.008,"lng":76.041,"operator":null},{"name":null,"mw":15,"lat":29.86,"lng":75.21,"operator":null},{"name":"Aitipamula","mw":15,"lat":17.208,"lng":79.326,"operator":null},{"name":"Ghanpur","mw":15,"lat":16.624,"lng":78.046,"operator":null},{"name":"Ghanapur","mw":15,"lat":16.861,"lng":78.092,"operator":null},{"name":"Lingapuram Suzlon","mw":15,"lat":18.316,"lng":78.204,"operator":null},{"name":"Nagarkurnool Mytrah","mw":15,"lat":16.499,"lng":78.382,"operator":null},{"name":null,"mw":15,"lat":23.92,"lng":71.942,"operator":"Sand Land Real Estate"},{"name":"Moovanur","mw":15,"lat":11.001,"lng":78.612,"operator":null},{"name":"RMTL Harij","mw":15,"lat":23.67,"lng":72.003,"operator":null},{"name":"Amathur","mw":14,"lat":9.554,"lng":77.885,"operator":null},{"name":"Tapovan","mw":14,"lat":24.462,"lng":86.755,"operator":null},{"name":"Harapanahalli RBW","mw":14,"lat":14.793,"lng":76.085,"operator":null},{"name":"KRRSPL Manwath Solar PV Park","mw":13.5,"lat":19.312,"lng":76.475,"operator":"Karnataka Resco Rooftop Solar Co Pvt Ltd"},{"name":"Lumbaniya","mw":13,"lat":27.467,"lng":72.283,"operator":null},{"name":"Amla Nankar-Susner","mw":12.9,"lat":23.929,"lng":76.121,"operator":null},{"name":"Telangana II Solar Power Plant","mw":12,"lat":16.153,"lng":77.763,"operator":null},{"name":"Debari","mw":12,"lat":24.601,"lng":73.821,"operator":null},{"name":"CIAL Solar Power Plant","mw":12,"lat":12.215,"lng":75.242,"operator":"Cochin International Airport Limited"},{"name":"Nayka","mw":11,"lat":23.651,"lng":71.699,"operator":null},{"name":"Kambadur","mw":11,"lat":14.392,"lng":77.203,"operator":null},{"name":"Kalamarahalli","mw":11,"lat":14.109,"lng":76.757,"operator":null},{"name":"Bareh","mw":10.5,"lat":29.876,"lng":75.477,"operator":"Rays Power Infra"},{"name":"Azure","mw":10,"lat":23.442,"lng":73.2,"operator":null},{"name":"Bap - GIS 3","mw":10,"lat":27.389,"lng":72.314,"operator":null},{"name":"Gurha SM","mw":10,"lat":27.859,"lng":72.841,"operator":null},{"name":"Alampur SP","mw":10,"lat":15.902,"lng":78.003,"operator":null},{"name":"Mono Steel Kesaria","mw":10,"lat":20.819,"lng":71.005,"operator":null},{"name":"Helabeli","mw":10,"lat":21.697,"lng":70.021,"operator":null},{"name":"Karahra Kalan","mw":10,"lat":25.32,"lng":79.812,"operator":null},{"name":"Beechiganipalle","mw":10,"lat":13.944,"lng":77.518,"operator":null},{"name":"Waa Solar Surendranagar","mw":10,"lat":22.708,"lng":71.418,"operator":null},{"name":"Valathadippatti","mw":10,"lat":10.579,"lng":78.635,"operator":null},{"name":"Ghasoi","mw":10,"lat":24.099,"lng":75.702,"operator":null},{"name":"Unchahar","mw":10,"lat":25.889,"lng":81.314,"operator":null},{"name":null,"mw":10,"lat":27.348,"lng":72.156,"operator":null},{"name":null,"mw":10,"lat":23.913,"lng":71.933,"operator":null},{"name":"Vadodara canal,Sama","mw":10,"lat":22.351,"lng":73.19,"operator":null},{"name":"Jhunir","mw":10,"lat":29.811,"lng":75.372,"operator":null},{"name":"Sangat Pura","mw":10,"lat":29.961,"lng":75.776,"operator":null},{"name":"Nimbera","mw":10,"lat":25.65,"lng":74.87,"operator":null},{"name":"Basavanahalli","mw":10,"lat":14.023,"lng":77.044,"operator":null},{"name":"Ramayampet SD","mw":10,"lat":18.125,"lng":78.488,"operator":null},{"name":"Tattapalle A","mw":10,"lat":17.445,"lng":77.629,"operator":null},{"name":"Jeedimetla","mw":10,"lat":17.572,"lng":78.428,"operator":null},{"name":"Bemalkheda","mw":10,"lat":17.642,"lng":77.418,"operator":null},{"name":"Satyampet","mw":10,"lat":16.52,"lng":76.811,"operator":null},{"name":"Pambur","mw":10,"lat":9.453,"lng":78.572,"operator":null},{"name":"Mahrauni Khurd","mw":10,"lat":24.792,"lng":78.409,"operator":null},{"name":"Solar plant NTPC kaniha","mw":10,"lat":21.087,"lng":85.097,"operator":null},{"name":"Karur","mw":10,"lat":10.816,"lng":78.186,"operator":null},{"name":"Boya","mw":10,"lat":25.168,"lng":73.252,"operator":null},{"name":"Bindpuri","mw":10,"lat":25.906,"lng":79.919,"operator":null},{"name":"Manglaur","mw":10,"lat":29.738,"lng":77.931,"operator":null},{"name":"Dehriya Susner","mw":10,"lat":23.984,"lng":76.022,"operator":null},{"name":"Mohari","mw":10,"lat":18.67,"lng":75.522,"operator":null},{"name":"Kotagulla","mw":10,"lat":14.165,"lng":78.143,"operator":null},{"name":"Devasamudra","mw":10,"lat":14.867,"lng":76.815,"operator":null},{"name":"Kottathur","mw":10,"lat":11.122,"lng":78.689,"operator":null},{"name":"Kapeli","mw":10,"lat":23.458,"lng":76.118,"operator":null},{"name":"Nagarkurnool Keerthi","mw":10,"lat":16.499,"lng":78.35,"operator":null},{"name":"Kuravapalli","mw":10,"lat":14.102,"lng":78.734,"operator":null},{"name":"Kadodiya","mw":10,"lat":23.512,"lng":76.159,"operator":null},{"name":"Kalwakurthy Haldiram","mw":10,"lat":16.696,"lng":78.489,"operator":null},{"name":"Sherghati","mw":10,"lat":24.574,"lng":84.852,"operator":null},{"name":"Bhagavathikere","mw":10,"lat":14.074,"lng":76.718,"operator":null},{"name":"Visakhapatnam Port","mw":10,"lat":17.72,"lng":83.255,"operator":null},{"name":"Bahraich","mw":10,"lat":27.742,"lng":81.519,"operator":null},{"name":"10MW Atnu solar Pvt Ltd( SP group)","mw":10,"lat":18.576,"lng":75.278,"operator":"SP group"},{"name":"Bibiyapur","mw":10,"lat":27.587,"lng":79.732,"operator":null},{"name":null,"mw":10,"lat":23.903,"lng":71.925,"operator":null},{"name":null,"mw":10,"lat":23.903,"lng":71.943,"operator":null},{"name":"Pratapgarh","mw":9,"lat":23.369,"lng":70.744,"operator":"Integrated Coal Mining"},{"name":"Vedachandur","mw":9,"lat":10.537,"lng":77.907,"operator":null},{"name":"Mauja","mw":8,"lat":25.317,"lng":79.813,"operator":null},{"name":"Muthuramalingapuram","mw":8,"lat":9.438,"lng":78.172,"operator":null},{"name":"Chillkepally","mw":8,"lat":17.681,"lng":77.723,"operator":null},{"name":"Bidar D","mw":8,"lat":17.774,"lng":77.463,"operator":null},{"name":"Kandagatla Keerthi","mw":8,"lat":17.27,"lng":79.596,"operator":null},{"name":"Thimmajipet","mw":8,"lat":16.687,"lng":78.174,"operator":null},{"name":"Chilveru","mw":8,"lat":16.759,"lng":78.258,"operator":null},{"name":"08MW JSW SOLAR PLANT","mw":8,"lat":15.077,"lng":76.687,"operator":"JSW RECL"},{"name":"Munanjipatti","mw":7.7,"lat":8.534,"lng":77.799,"operator":null},{"name":"Indiranagar","mw":7,"lat":14.177,"lng":77.439,"operator":null},{"name":"Andur","mw":7,"lat":17.801,"lng":76.246,"operator":null},{"name":"Chegunta","mw":7,"lat":18.04,"lng":78.454,"operator":null},{"name":"Naga Samudra","mw":7,"lat":14.821,"lng":76.747,"operator":null},{"name":"Atas Sirdi Sarkhandi","mw":6,"lat":23.305,"lng":73.309,"operator":null},{"name":"Kudava","mw":6,"lat":22.357,"lng":70.906,"operator":null},{"name":"Kunigal B","mw":6,"lat":12.864,"lng":77.113,"operator":null},{"name":"Mithi","mw":6,"lat":28.697,"lng":75.582,"operator":null},{"name":"Ramtirath Jaga","mw":6,"lat":29.962,"lng":75.163,"operator":null},{"name":"Kolanpaka","mw":6,"lat":17.669,"lng":79.031,"operator":null},{"name":"Project Mahbubnagar","mw":5.8,"lat":16.683,"lng":78.354,"operator":"Rays Power Infra"},{"name":"Project Medak","mw":5.8,"lat":17.829,"lng":78.332,"operator":"Rays Power Infra"},{"name":null,"mw":5.8,"lat":25.372,"lng":81.872,"operator":null},{"name":"Project Uttar Pradesh","mw":5.5,"lat":25.817,"lng":79.692,"operator":"Rays Power Infra"},{"name":"Project Koppal","mw":5.5,"lat":15.586,"lng":76.19,"operator":"Rays Power Infra"},{"name":"Kunigal A","mw":5.5,"lat":13.04,"lng":76.923,"operator":null},{"name":"Tinwari Swiss","mw":5.2,"lat":26.534,"lng":72.857,"operator":null},{"name":"Bithuja","mw":5.2,"lat":25.804,"lng":72.289,"operator":null},{"name":"Rapar Khokhara","mw":5,"lat":23.259,"lng":70.008,"operator":"Taxus Group"},{"name":"Bap - Punj Lloyd","mw":5,"lat":27.386,"lng":72.304,"operator":null},{"name":"Rawra Viraj Solar Field","mw":5,"lat":27.404,"lng":72.162,"operator":null},{"name":"Rawra Tracker","mw":5,"lat":27.396,"lng":72.154,"operator":null},{"name":"Solar Park, Kheenvsar/Nagaur","mw":5,"lat":26.971,"lng":73.392,"operator":null},{"name":"Tinwari - MB Solar Power Plant","mw":5,"lat":26.519,"lng":72.853,"operator":null},{"name":"Tinwari AES","mw":5,"lat":26.525,"lng":72.862,"operator":null},{"name":"Betwasiya","mw":5,"lat":26.788,"lng":72.938,"operator":null},{"name":"Bhambuo Ki Dhani","mw":5,"lat":26.744,"lng":72.983,"operator":null},{"name":"Gulabpura","mw":5,"lat":25.859,"lng":74.657,"operator":null},{"name":"Gadna 2","mw":5,"lat":27.43,"lng":72.397,"operator":null},{"name":null,"mw":5,"lat":27.574,"lng":72.207,"operator":null},{"name":"Gadna 1","mw":5,"lat":27.428,"lng":72.389,"operator":null},{"name":"Pulivendula","mw":5,"lat":14.463,"lng":78.239,"operator":null},{"name":"Panandhro","mw":5,"lat":23.679,"lng":68.765,"operator":null},{"name":"Jajru","mw":5,"lat":28.283,"lng":77.318,"operator":null},{"name":"Fatepur Emco","mw":5,"lat":23.396,"lng":71.639,"operator":null},{"name":"Jatisara","mw":5,"lat":27.117,"lng":72.779,"operator":null},{"name":"Pokhran Seamless","mw":5,"lat":26.872,"lng":71.908,"operator":null},{"name":"Peddaumenthal","mw":5,"lat":17.228,"lng":77.977,"operator":null},{"name":null,"mw":5,"lat":27.225,"lng":74.252,"operator":null},{"name":"Dhank","mw":5,"lat":21.736,"lng":70.116,"operator":null},{"name":"APCA, Khageshri","mw":5,"lat":21.777,"lng":70.067,"operator":null},{"name":"Dhank","mw":5,"lat":21.777,"lng":70.077,"operator":null},{"name":"Parigi SSJ","mw":5,"lat":17.167,"lng":77.915,"operator":null},{"name":"Raghawa IOC","mw":5,"lat":27.385,"lng":70.569,"operator":null},{"name":"Raghawa GAIL","mw":5,"lat":27.384,"lng":70.563,"operator":null},{"name":null,"mw":5,"lat":21.424,"lng":73.128,"operator":null},{"name":"S.J. Green Surendranagar","mw":5,"lat":22.707,"lng":71.413,"operator":null},{"name":"Bap - OPG","mw":5,"lat":27.353,"lng":72.356,"operator":null},{"name":"NTPC 5 MW Solar Photo-Voltaic","mw":5,"lat":11.611,"lng":92.711,"operator":"NTPC"},{"name":"Bhadrada","mw":5,"lat":23.669,"lng":71.578,"operator":null},{"name":"Shankapur","mw":5,"lat":18.062,"lng":78.417,"operator":null},{"name":"Medak Rays","mw":5,"lat":18.055,"lng":78.407,"operator":null},{"name":"Achampet","mw":5,"lat":16.39,"lng":78.662,"operator":null},{"name":"Bijapur Essel 3","mw":5,"lat":16.872,"lng":75.713,"operator":null},{"name":"Vedasandur","mw":5,"lat":10.525,"lng":77.89,"operator":null},{"name":"Panipat","mw":5,"lat":29.389,"lng":76.871,"operator":null},{"name":"Dadri","mw":5,"lat":28.579,"lng":77.632,"operator":null},{"name":"Chandrapur","mw":5,"lat":20.021,"lng":79.272,"operator":null},{"name":"Gollagudem","mw":5,"lat":16.861,"lng":81.363,"operator":null},{"name":"Barkathpally","mw":5,"lat":17.232,"lng":77.865,"operator":null},{"name":"Munipalli","mw":5,"lat":17.689,"lng":77.861,"operator":null},{"name":"Kolihala","mw":5,"lat":15.575,"lng":76.206,"operator":null},{"name":"Azhagapuri","mw":5,"lat":11.194,"lng":78.458,"operator":null},{"name":"Kodaiyur","mw":5,"lat":10.857,"lng":77.977,"operator":null},{"name":"Venkatapur","mw":5,"lat":17.442,"lng":78.624,"operator":null},{"name":"Veerapuram","mw":5,"lat":14.762,"lng":76.951,"operator":null},{"name":"Kadodiya HE","mw":5,"lat":23.506,"lng":76.154,"operator":null}]}